[
  {
    "id": 1,
    "name": "ザヘッドスパトウキョウ 渋谷（THE HEAD SPA TOKYO）",
    "area": "東京",
    "district": "渋谷",
    "address": "東京都渋谷区渋谷3-18-7 3F",
    "tel": "",
    "hours": "要確認",
    "description": "渋谷駅徒歩2分。髪質改善ヘッドスパ専門店。国産ヒト幹細胞を使用した施術やエクソソーム・ヒト幹細胞水素で艶髪に導くサービスが特徴。HPBAWARD 2025 ベストサロン部門【注目サロン】選出。",
    "citation": "掲載時点の情報を要約。引用元：ホットペッパービューティー。詳細・最新は店舗へお問い合わせください。",
    "hpb_url": "https://beauty.hotpepper.jp/slnH000658862/",
    "official_url": "",
    "inquiry_url": "",
    "image_url": "https://imgbp.hotp.jp/CSP/IMG_SRC/70/77/B189417077/B189417077.jpg?impolicy=HPB_policy_default&w=600&h=450",
    "nearest_station": "渋谷駅",
    "walk_minutes": "2",
    "closed": "",
    "hours_note": "",
    "price_note": "",
    "features": [],
    "access_note": "3F",
    "payment": "",
    "parking": ""
  },
  {
    "id": 4,
    "name": "リヘア スーパースカルプ 渋谷店（Re:hair SuperScalp）",
    "area": "東京",
    "district": "渋谷",
    "address": "東京都渋谷区道玄坂1-15-7 6F",
    "tel": "",
    "hours": "要確認",
    "description": "渋谷駅徒歩5分。ドライヘッドスパ＆育毛促進専門店。完全個室で頭皮のべたつきや抜け毛対策。よもぎ蒸しも併設。深夜22時まで営業。",
    "citation": "掲載時点の情報を要約。引用元：ホットペッパービューティー。詳細・最新は店舗へお問い合わせください。",
    "hpb_url": "https://beauty.hotpepper.jp/slnH000711725/",
    "official_url": "",
    "inquiry_url": "",
    "nearest_station": "渋谷駅",
    "walk_minutes": "5",
    "closed": "",
    "hours_note": "",
    "price_note": "",
    "features": [
      "完全個室",
      "深夜営業"
    ],
    "access_note": "6F",
    "payment": "",
    "parking": ""
  },
  {
    "id": 5,
    "name": "モジョ 渋谷（mojo）",
    "area": "東京",
    "district": "渋谷",
    "address": "東京都渋谷区",
    "tel": "",
    "hours": "要確認",
    "description": "渋谷駅徒歩11分・表参道駅徒歩9分。クレイヘッドスパ専門店。マイクロスコープで頭皮環境を確認。眼精疲労・頭痛にもアプローチ。妊婦も受付可能。",
    "citation": "掲載時点の情報を要約。引用元：ホットペッパービューティー。詳細・最新は店舗へお問い合わせください。",
    "hpb_url": "https://beauty.hotpepper.jp/slnH000679486/",
    "official_url": "",
    "inquiry_url": "",
    "nearest_station": "渋谷駅",
    "walk_minutes": "11",
    "closed": "",
    "hours_note": "",
    "price_note": "",
    "features": [
      "妊婦OK"
    ],
    "access_note": "",
    "payment": "",
    "parking": ""
  },
  {
    "id": 6,
    "name": "リッツ 渋谷店",
    "area": "東京",
    "district": "渋谷",
    "address": "東京都渋谷区渋谷3-17-4 山口ビル2F",
    "tel": "03-6418-5075",
    "hours": "11:00〜20:00（平日・土日祝）",
    "description": "渋谷駅新南口徒歩1〜2分。頭に特化したヘッドケア専門店。マイクロスコープで頭皮状態を確認。リラクゼーションヘッドスパ・スキャルプケア・頭皮洗浄・育毛促進など。24時間WEB予約可。",
    "citation": "掲載時点の情報を要約。引用元：ホットペッパービューティー。詳細・最新は店舗へお問い合わせください。",
    "hpb_url": "https://beauty.hotpepper.jp/slnH000545607/",
    "official_url": "",
    "inquiry_url": "",
    "nearest_station": "渋谷駅",
    "walk_minutes": "1〜2",
    "closed": "",
    "hours_note": "",
    "price_note": "",
    "features": [
      "24時間WEB予約可"
    ],
    "access_note": "山口ビル2F",
    "payment": "",
    "parking": ""
  },
  {
    "id": 7,
    "name": "schritt 渋谷【シュリット】",
    "area": "東京",
    "district": "渋谷",
    "address": "東京都渋谷区（宮益坂・ヒカリエ近く）",
    "tel": "",
    "hours": "要確認",
    "description": "渋谷駅B3出口3分・宮益坂徒歩3分。クイックヘッドスパ￥1500〜。頭皮洗浄・髪質改善トリートメントも人気。学割U24対応。口コミ高評価。",
    "citation": "掲載時点の情報を要約。引用元：ホットペッパービューティー。詳細・最新は店舗へお問い合わせください。",
    "hpb_url": "https://beauty.hotpepper.jp/slnH000256896/",
    "official_url": "",
    "inquiry_url": "",
    "nearest_station": "渋谷駅",
    "walk_minutes": "3",
    "closed": "",
    "hours_note": "",
    "price_note": "料金目安 1500円〜",
    "features": [
      "学割U24"
    ],
    "access_note": "",
    "payment": "",
    "parking": ""
  },
  {
    "id": 8,
    "name": "Lomalia 渋谷宮益坂【ロマリア】",
    "area": "東京",
    "district": "渋谷",
    "address": "東京都渋谷区（渋谷駅B3番口3分）",
    "tel": "",
    "hours": "要確認",
    "description": "渋谷駅B3番口徒歩3分。極上ヘッドスパで頭皮環境をリセット。育毛促進・小顔＆リフトアップ効果も。炭酸ショートヘッドスパ付カットなど。",
    "citation": "掲載時点の情報を要約。引用元：ホットペッパービューティー。詳細・最新は店舗へお問い合わせください。",
    "hpb_url": "https://beauty.hotpepper.jp/slnH000419288/",
    "official_url": "",
    "inquiry_url": "",
    "nearest_station": "渋谷駅",
    "walk_minutes": "3",
    "closed": "",
    "hours_note": "",
    "price_note": "",
    "features": [],
    "access_note": "B3番口徒歩3分",
    "payment": "",
    "parking": ""
  },
  {
    "id": 9,
    "name": "LaLarOomo 渋谷公園通り店【ララルーモ】",
    "area": "東京",
    "district": "渋谷",
    "address": "東京都渋谷区（渋谷駅徒歩5分・アップルストア隣）",
    "tel": "",
    "hours": "要確認",
    "description": "全席半個室。エイジングケアに着目したヘッドスパ。頭浸浴や9種類のアロマ。髪質改善・アロマヘッドスパ＋頭浸浴が人気。",
    "citation": "掲載時点の情報を要約。引用元：ホットペッパービューティー。詳細・最新は店舗へお問い合わせください。",
    "hpb_url": "https://beauty.hotpepper.jp/slnH000715050/",
    "official_url": "",
    "inquiry_url": "",
    "nearest_station": "渋谷駅",
    "walk_minutes": "5",
    "closed": "",
    "hours_note": "",
    "price_note": "",
    "features": [
      "半個室"
    ],
    "access_note": "",
    "payment": "",
    "parking": ""
  },
  {
    "id": 10,
    "name": "shirof shibuya【シロフシブヤ】",
    "area": "東京",
    "district": "渋谷",
    "address": "東京都渋谷区（渋谷駅新南改札1分・出口C2）",
    "tel": "",
    "hours": "要確認",
    "description": "渋谷駅新南改札1分。フルフラットでのAujuaヘッドスパが人気。オージュア／イルミナカラー／縮毛矯正。口コミ多数。",
    "citation": "掲載時点の情報を要約。引用元：ホットペッパービューティー。詳細・最新は店舗へお問い合わせください。",
    "hpb_url": "https://beauty.hotpepper.jp/slnH000581724/",
    "official_url": "",
    "inquiry_url": "",
    "nearest_station": "渋谷駅",
    "walk_minutes": "1",
    "closed": "",
    "hours_note": "",
    "price_note": "",
    "features": [],
    "access_note": "",
    "payment": "",
    "parking": ""
  },
  {
    "id": 11,
    "name": "hair salon nano【ヘアサロン ナノ】",
    "area": "東京",
    "district": "渋谷",
    "address": "東京都渋谷区（渋谷駅5分／代々木公園・神泉10分）",
    "tel": "",
    "hours": "要確認",
    "description": "国産オーガニックLa・CASTAのアロマヘッドスパ。癒し＋頭皮ケア。髪質改善・白髪染め。30代40代に支持。スパBASIC〜PREMIUMコース。",
    "citation": "掲載時点の情報を要約。引用元：ホットペッパービューティー。詳細・最新は店舗へお問い合わせください。",
    "hpb_url": "https://beauty.hotpepper.jp/slnH000087672/",
    "official_url": "",
    "inquiry_url": "",
    "nearest_station": "渋谷駅",
    "walk_minutes": "5",
    "closed": "",
    "hours_note": "",
    "price_note": "",
    "features": [],
    "access_note": "",
    "payment": "",
    "parking": ""
  },
  {
    "id": 12,
    "name": "SIECLE hair&spa 渋谷店【シエクル ヘアアンドスパ】",
    "area": "東京",
    "district": "渋谷",
    "address": "東京都渋谷区渋谷3-26-25 ラフォンテ1F",
    "tel": "03-3486-6699",
    "hours": "要確認",
    "description": "渋谷駅新南口徒歩1分。フルフラットのYUMEシャンで癒しのヘッドスパ。リラクゼーションヘッドスパ￥5280〜。ケラスターゼ／モロッカン取扱。",
    "citation": "掲載時点の情報を要約。引用元：ホットペッパービューティー。詳細・最新は店舗へお問い合わせください。",
    "hpb_url": "https://beauty.hotpepper.jp/slnH000058046/",
    "official_url": "",
    "inquiry_url": "",
    "nearest_station": "渋谷駅",
    "walk_minutes": "1",
    "closed": "",
    "hours_note": "",
    "price_note": "料金目安 5280円〜",
    "features": [],
    "access_note": "ラフォンテ1F",
    "payment": "",
    "parking": ""
  },
  {
    "id": 13,
    "name": "Liberte 渋谷【リベルテ】",
    "area": "東京",
    "district": "渋谷",
    "address": "東京都渋谷区（渋谷駅新南改札徒歩1分）",
    "tel": "",
    "hours": "要確認",
    "description": "渋谷駅新南改札徒歩1分。癒しのヘッドスパで頭皮から髪までケア。髪質改善・前髪カット・カラー・トリートメント。TOKIOトリートメント＋プチスパなど。",
    "citation": "掲載時点の情報を要約。引用元：ホットペッパービューティー。詳細・最新は店舗へお問い合わせください。",
    "hpb_url": "https://beauty.hotpepper.jp/slnH000516843/",
    "official_url": "",
    "inquiry_url": "",
    "nearest_station": "渋谷駅",
    "walk_minutes": "1",
    "closed": "",
    "hours_note": "",
    "price_note": "",
    "features": [],
    "access_note": "",
    "payment": "",
    "parking": ""
  },
  {
    "id": 14,
    "name": "VAICE渋谷店",
    "area": "東京",
    "district": "渋谷",
    "address": "東京都渋谷区（渋谷駅徒歩5分・神南・パルコ斜め前）",
    "tel": "",
    "hours": "要確認",
    "description": "渋谷駅徒歩5分。頭皮から潤いを与えて頭皮環境を整えるヘッドスパ。ケアブリーチ・ハイトーンカラー・ヘアアレンジ。疲労回復効果も。",
    "citation": "掲載時点の情報を要約。引用元：ホットペッパービューティー。詳細・最新は店舗へお問い合わせください。",
    "hpb_url": "https://beauty.hotpepper.jp/slnH000548997/",
    "official_url": "",
    "inquiry_url": "",
    "nearest_station": "渋谷駅",
    "walk_minutes": "5",
    "closed": "",
    "hours_note": "",
    "price_note": "",
    "features": [],
    "access_note": "",
    "payment": "",
    "parking": ""
  },
  {
    "id": 15,
    "name": "Men's salon ROOST 渋谷店【ルースト】",
    "area": "東京",
    "district": "渋谷",
    "address": "東京都渋谷区（渋谷駅徒歩3分）",
    "tel": "",
    "hours": "要確認",
    "description": "渋谷駅徒歩3分。本格メンズヘッドスパが定評。MEN'Sカット＋ROOSTヘッドスパ・炭酸クレンジングヘッドスパ。眉毛・学割U24対応。",
    "citation": "掲載時点の情報を要約。引用元：ホットペッパービューティー。詳細・最新は店舗へお問い合わせください。",
    "hpb_url": "https://beauty.hotpepper.jp/slnH000656535/",
    "official_url": "",
    "inquiry_url": "",
    "nearest_station": "渋谷駅",
    "walk_minutes": "3",
    "closed": "",
    "hours_note": "",
    "price_note": "",
    "features": [
      "学割U24",
      "メンズ専門"
    ],
    "access_note": "",
    "payment": "",
    "parking": ""
  },
  {
    "id": 16,
    "name": "SNOT by GARTE",
    "area": "東京",
    "district": "渋谷",
    "address": "東京都渋谷区（代官山駅徒歩1分・渋谷駅徒歩13分）",
    "tel": "",
    "hours": "要確認",
    "description": "代官山駅徒歩1分。プレミアムヘッドスパ・ケアブリーチ・ダブルカラー・ウルフカット。高技術×カウンセリングで極上スパを提供。",
    "citation": "掲載時点の情報を要約。引用元：ホットペッパービューティー。詳細・最新は店舗へお問い合わせください。",
    "hpb_url": "https://beauty.hotpepper.jp/slnH000696908/",
    "official_url": "",
    "inquiry_url": "",
    "nearest_station": "代官山駅",
    "walk_minutes": "1",
    "closed": "",
    "hours_note": "",
    "price_note": "",
    "features": [],
    "access_note": "",
    "payment": "",
    "parking": ""
  },
  {
    "id": 17,
    "name": "JEWIL SHIBUYA【ジュイル シブヤ】",
    "area": "東京",
    "district": "渋谷",
    "address": "東京都渋谷区（渋谷駅徒歩3分・アップルストア隣ビル3F）",
    "tel": "",
    "hours": "要確認",
    "description": "渋谷駅徒歩3分。CM・メディア掲載の贅沢ヘッドスパ。カラー・ブリーチ・ダブルカラー・髪質改善。極上15分コースなど。",
    "citation": "掲載時点の情報を要約。引用元：ホットペッパービューティー。詳細・最新は店舗へお問い合わせください。",
    "hpb_url": "https://beauty.hotpepper.jp/slnH000258389/",
    "official_url": "",
    "inquiry_url": "",
    "nearest_station": "渋谷駅",
    "walk_minutes": "3",
    "closed": "",
    "hours_note": "",
    "price_note": "",
    "features": [],
    "access_note": "アップルストア隣ビル3F",
    "payment": "",
    "parking": ""
  },
  {
    "id": 18,
    "name": "Natural 渋谷店【ナチュラル】",
    "area": "東京",
    "district": "渋谷",
    "address": "東京都渋谷区（渋谷駅ハチ公口5分・公園通りパルコすぐ）",
    "tel": "",
    "hours": "要確認",
    "description": "全席半個室。カット＋オーガニッククイックヘッドスパ￥6600。日頃の疲れや眼精疲労改善に。オーガニック艶カラー＋スパも人気。",
    "citation": "掲載時点の情報を要約。引用元：ホットペッパービューティー。詳細・最新は店舗へお問い合わせください。",
    "hpb_url": "https://beauty.hotpepper.jp/slnH000606400/",
    "official_url": "",
    "inquiry_url": "",
    "nearest_station": "渋谷駅",
    "walk_minutes": "5",
    "closed": "",
    "hours_note": "",
    "price_note": "",
    "features": [
      "半個室"
    ],
    "access_note": "",
    "payment": "",
    "parking": ""
  },
  {
    "id": 19,
    "name": "メンズサロン FADE&LINE 渋谷店【フェードアンドライン】",
    "area": "東京",
    "district": "渋谷",
    "address": "東京都渋谷区（渋谷駅徒歩7分・神泉徒歩13分）",
    "tel": "",
    "hours": "要確認",
    "description": "メンズの身だしなみは頭皮から。ニオイや汚れもスッキリ落とすヘッドケア。カット・カラー・パーマ。平日限定初回カットなど。",
    "citation": "掲載時点の情報を要約。引用元：ホットペッパービューティー。詳細・最新は店舗へお問い合わせください。",
    "hpb_url": "https://beauty.hotpepper.jp/slnH000678990/",
    "official_url": "",
    "inquiry_url": "",
    "nearest_station": "渋谷駅",
    "walk_minutes": "7",
    "closed": "",
    "hours_note": "",
    "price_note": "",
    "features": [
      "メンズ専門"
    ],
    "access_note": "",
    "payment": "",
    "parking": ""
  },
  {
    "id": 20,
    "name": "HAIR DRESSER by アトリエはるか 渋谷サクラステージ店",
    "area": "東京",
    "district": "渋谷",
    "address": "東京都渋谷区（JR渋谷駅新南改札直結・渋谷サクラステージB1階）",
    "tel": "",
    "hours": "要確認",
    "description": "渋谷サクラステージSHIBUYAサイドB1階。極上スパで日頃の疲れをリセット。うるツヤ髪質改善＋クイックヘッドスパ。浴衣着付けあり。",
    "citation": "掲載時点の情報を要約。引用元：ホットペッパービューティー。詳細・最新は店舗へお問い合わせください。",
    "hpb_url": "https://beauty.hotpepper.jp/slnH000716653/",
    "official_url": "",
    "inquiry_url": "",
    "nearest_station": "渋谷駅",
    "walk_minutes": "1",
    "closed": "",
    "hours_note": "",
    "price_note": "",
    "features": [],
    "access_note": "渋谷サクラステージB1階",
    "payment": "",
    "parking": ""
  },
  {
    "id": 21,
    "name": "SKY MASTER BARBER 渋谷【スカイマスターバーバー】",
    "area": "東京",
    "district": "渋谷",
    "address": "東京都渋谷区（渋谷駅徒歩5分）",
    "tel": "",
    "hours": "要確認",
    "description": "理容室。ヘッドスパ込みメニューが豊富。思わず眠ってしまう癒しに定評。至福のヘッドスパ＆シェービング。頭皮クレンジングスパなど。",
    "citation": "掲載時点の情報を要約。引用元：ホットペッパービューティー。詳細・最新は店舗へお問い合わせください。",
    "hpb_url": "https://beauty.hotpepper.jp/slnH000361009/",
    "official_url": "",
    "inquiry_url": "",
    "nearest_station": "渋谷駅",
    "walk_minutes": "5",
    "closed": "",
    "hours_note": "",
    "price_note": "",
    "features": [],
    "access_note": "",
    "payment": "",
    "parking": ""
  },
  {
    "id": 22,
    "name": "Boa Sorte【ボアソルテ】",
    "area": "東京",
    "district": "渋谷",
    "address": "東京都渋谷区（JR渋谷駅新南改札徒歩3分）",
    "tel": "",
    "hours": "要確認",
    "description": "渋谷駅新南改札徒歩3分。頭皮ケア＆癒しのヘッドスパで日頃の疲れをスッキリ解消。頭皮環境を整え髪の芯から美しく。フローディアTRなど。",
    "citation": "掲載時点の情報を要約。引用元：ホットペッパービューティー。詳細・最新は店舗へお問い合わせください。",
    "hpb_url": "https://beauty.hotpepper.jp/slnH000311176/",
    "official_url": "",
    "inquiry_url": "",
    "nearest_station": "渋谷駅",
    "walk_minutes": "3",
    "closed": "",
    "hours_note": "",
    "price_note": "",
    "features": [],
    "access_note": "",
    "payment": "",
    "parking": ""
  },
  {
    "id": 23,
    "name": "io 渋谷【イオ シブヤ】",
    "area": "東京",
    "district": "渋谷",
    "address": "東京都渋谷区（渋谷駅徒歩7分）",
    "tel": "",
    "hours": "要確認",
    "description": "8割以上がスパを追加予約。不調な箇所をツボで改善。カットカラーとセット施術も可能。似合わせカット＋カラー＋3stepトリートメント。",
    "citation": "掲載時点の情報を要約。引用元：ホットペッパービューティー。詳細・最新は店舗へお問い合わせください。",
    "hpb_url": "https://beauty.hotpepper.jp/slnH000797965/",
    "official_url": "",
    "inquiry_url": "",
    "nearest_station": "渋谷駅",
    "walk_minutes": "7",
    "closed": "",
    "hours_note": "",
    "price_note": "",
    "features": [],
    "access_note": "",
    "payment": "",
    "parking": ""
  },
  {
    "id": 24,
    "name": "HAIR SALON SAVOIA Organic Eco Salon【サボイア】",
    "area": "東京",
    "district": "渋谷",
    "address": "東京都渋谷区（JR渋谷駅新南徒歩4分）",
    "tel": "",
    "hours": "要確認",
    "description": "オーガニック・ヴィーガン対応。ヴィーガンヘッドスパ・オーガニックスパ。植物ヘナカラー＋カット＋オーガニックTR。環境配慮のサロン。",
    "citation": "掲載時点の情報を要約。引用元：ホットペッパービューティー。詳細・最新は店舗へお問い合わせください。",
    "hpb_url": "https://beauty.hotpepper.jp/slnH000140818/",
    "official_url": "",
    "inquiry_url": "",
    "nearest_station": "渋谷駅",
    "walk_minutes": "4",
    "closed": "",
    "hours_note": "",
    "price_note": "",
    "features": [],
    "access_note": "",
    "payment": "",
    "parking": ""
  },
  {
    "id": 25,
    "name": "MINX shibuya smart salon【ミンクス渋谷】",
    "area": "東京",
    "district": "渋谷",
    "address": "東京都渋谷区（渋谷駅B1出口10秒・宮下パークルイヴィトン正面3F）",
    "tel": "",
    "hours": "要確認",
    "description": "渋谷駅B1出口10秒。ReFa最新バブルシャワー。VEENAバブルスパ＋カット・透明感カラー。髪と頭皮のデトックス。当日予約OK。",
    "citation": "掲載時点の情報を要約。引用元：ホットペッパービューティー。詳細・最新は店舗へお問い合わせください。",
    "hpb_url": "https://beauty.hotpepper.jp/slnH000627093/",
    "official_url": "",
    "inquiry_url": "",
    "nearest_station": "渋谷駅",
    "walk_minutes": "1",
    "closed": "",
    "hours_note": "",
    "price_note": "",
    "features": [],
    "access_note": "宮下パークルイヴィトン正面3F",
    "payment": "",
    "parking": ""
  },
  {
    "id": 26,
    "name": "ACHFILO",
    "area": "東京",
    "district": "渋谷",
    "address": "東京都渋谷区（渋谷駅B1出口徒歩2分）",
    "tel": "",
    "hours": "要確認",
    "description": "渋谷駅B1出口徒歩2分。髪質改善・シールエクステ・インナーカラー。極上の癒し体験で頭皮と艶髪に。ミネコラ髪質改善＋ヘッドスパが人気。",
    "citation": "掲載時点の情報を要約。引用元：ホットペッパービューティー。詳細・最新は店舗へお問い合わせください。",
    "hpb_url": "https://beauty.hotpepper.jp/slnH000225793/",
    "official_url": "",
    "inquiry_url": "",
    "nearest_station": "渋谷駅",
    "walk_minutes": "2",
    "closed": "",
    "hours_note": "",
    "price_note": "",
    "features": [],
    "access_note": "",
    "payment": "",
    "parking": ""
  },
  {
    "id": 27,
    "name": "hair&headspa JINA 渋谷・表参道【ジーナ】",
    "area": "東京",
    "district": "渋谷",
    "address": "東京都渋谷区（渋谷駅7分・表参道駅B1出口6分）",
    "tel": "",
    "hours": "要確認",
    "description": "癒しと髪質改善を同時に。35歳からの大人女性向け上質ヘッドスパ。ほどくヘッドスパ40分で頭の重硬・首肩こり・デコルテほぐし。",
    "citation": "掲載時点の情報を要約。引用元：ホットペッパービューティー。詳細・最新は店舗へお問い合わせください。",
    "hpb_url": "https://beauty.hotpepper.jp/slnH000783931/",
    "official_url": "",
    "inquiry_url": "",
    "nearest_station": "渋谷駅",
    "walk_minutes": "7",
    "closed": "",
    "hours_note": "",
    "price_note": "",
    "features": [],
    "access_note": "",
    "payment": "",
    "parking": ""
  },
  {
    "id": 28,
    "name": "GARAGE HAIR【ガレージヘア】",
    "area": "東京",
    "district": "渋谷",
    "address": "東京都渋谷区（渋谷駅・表参道駅各徒歩7分）",
    "tel": "",
    "hours": "要確認",
    "description": "いつもの施術にプラスで15分クイックヘッドスパ。忙しい現代人も短時間でリフレッシュ。ヘッドスパ＋4step／5stepトリートメント。",
    "citation": "掲載時点の情報を要約。引用元：ホットペッパービューティー。詳細・最新は店舗へお問い合わせください。",
    "hpb_url": "https://beauty.hotpepper.jp/slnH000185783/",
    "official_url": "",
    "inquiry_url": "",
    "nearest_station": "渋谷駅",
    "walk_minutes": "7",
    "closed": "",
    "hours_note": "",
    "price_note": "",
    "features": [],
    "access_note": "",
    "payment": "",
    "parking": ""
  },
  {
    "id": 29,
    "name": "TRUE 渋谷【トゥルー】",
    "area": "東京",
    "district": "渋谷",
    "address": "東京都渋谷区（渋谷駅10分・代々木公園13分）",
    "tel": "",
    "hours": "要確認",
    "description": "個室で行うTRUE自慢のヘッドスパ。頭皮のコリをほぐし思わず眠ってしまうリラックス。白髪染め・イルミナカラー・炭酸ケア＋ヘッドスパ。",
    "citation": "掲載時点の情報を要約。引用元：ホットペッパービューティー。詳細・最新は店舗へお問い合わせください。",
    "hpb_url": "https://beauty.hotpepper.jp/slnH000529756/",
    "official_url": "",
    "inquiry_url": "",
    "nearest_station": "渋谷駅",
    "walk_minutes": "10",
    "closed": "",
    "hours_note": "",
    "price_note": "",
    "features": [
      "個室"
    ],
    "access_note": "",
    "payment": "",
    "parking": ""
  },
  {
    "id": 30,
    "name": "Pono【ポノ】",
    "area": "東京",
    "district": "渋谷",
    "address": "東京都渋谷区（渋谷駅A6c出口徒歩3分）",
    "tel": "",
    "hours": "要確認",
    "description": "フルフラットシャンプー台あり。極上ヘッドスパで頭皮環境を改善し健康的な美髪へ。血行促進ヘッドスパ75分・カット＋ヘッドスパ。白髪染め・ショート。",
    "citation": "掲載時点の情報を要約。引用元：ホットペッパービューティー。詳細・最新は店舗へお問い合わせください。",
    "hpb_url": "https://beauty.hotpepper.jp/slnH000743251/",
    "official_url": "",
    "inquiry_url": "",
    "nearest_station": "渋谷駅",
    "walk_minutes": "3",
    "closed": "",
    "hours_note": "",
    "price_note": "",
    "features": [],
    "access_note": "",
    "payment": "",
    "parking": ""
  },
  {
    "id": 31,
    "name": "MEN'S WILL by SVENSON 渋谷スタジオ",
    "area": "東京",
    "district": "渋谷",
    "address": "東京都渋谷区（JR渋谷駅徒歩4分）",
    "tel": "",
    "hours": "要確認",
    "description": "メンズ・完全個室。SVENSONのヘアエステ。髪の悩みにアプローチする独自メソッドのヘアケア。スカルプクレンジング・ホットリラックスヘッドスパ＋カット。",
    "citation": "掲載時点の情報を要約。引用元：ホットペッパービューティー。詳細・最新は店舗へお問い合わせください。",
    "hpb_url": "https://beauty.hotpepper.jp/slnH000309801/",
    "official_url": "",
    "inquiry_url": "",
    "nearest_station": "渋谷駅",
    "walk_minutes": "4",
    "closed": "",
    "hours_note": "",
    "price_note": "",
    "features": [
      "完全個室",
      "メンズ専門"
    ],
    "access_note": "",
    "payment": "",
    "parking": ""
  },
  {
    "id": 2,
    "name": "ヘアリゾート粋 新宿三丁目本店",
    "area": "東京",
    "district": "新宿",
    "address": "東京都新宿区",
    "tel": "",
    "hours": "要確認",
    "description": "新宿三丁目駅B5出口徒歩1分／新宿駅東口徒歩5分。ヘッドスパが自慢のサロン。整体師監修の「粋眠クリームバス」が人気。カット+ヘッドスパなどメニュー多数。",
    "citation": "掲載時点の情報を要約。引用元：ホットペッパービューティー。詳細・最新は店舗へお問い合わせください。",
    "hpb_url": "https://beauty.hotpepper.jp/slnH000035742/",
    "official_url": "",
    "inquiry_url": "",
    "nearest_station": "新宿三丁目駅",
    "walk_minutes": "1",
    "closed": "",
    "hours_note": "",
    "price_note": "",
    "features": [],
    "access_note": "",
    "payment": "",
    "parking": ""
  },
  {
    "id": 3,
    "name": "ヘッドコンシェルジュ 銀座店（head CONCIERGE）",
    "area": "東京",
    "district": "銀座",
    "address": "東京都中央区銀座（SANWA GINZAビル4F/6F）",
    "tel": "",
    "hours": "要確認",
    "description": "銀座駅C3出口徒歩3分。業界口コミNo.1のヘッドスパ専門店。アロマの香る個室で本格ヘッドスパ。不眠改善・首肩こり解消・育毛促進など。ヒト幹細胞配合オリジナル商材使用。",
    "citation": "掲載時点の情報を要約。引用元：ホットペッパービューティー。詳細・最新は店舗へお問い合わせください。",
    "hpb_url": "https://beauty.hotpepper.jp/slnH000487465/",
    "official_url": "",
    "inquiry_url": "",
    "nearest_station": "銀座駅",
    "walk_minutes": "3",
    "closed": "",
    "hours_note": "",
    "price_note": "",
    "features": [
      "個室"
    ],
    "access_note": "SANWA GINZAビル4F/6F",
    "payment": "",
    "parking": ""
  }
]